{
    "libraries": [{
            "address": "Av. Patria #2052, Santa Isabel, 45110 Guadalajara, Jal.",
            "id": "Libreria Gandhi",
            "image": "https://lh5.googleusercontent.com/p/AF1QipPSBXlD8D1pzDAo3ZMNrxYsIrQvPpyCIyih-VT_=w408-h283-k-no",
            "lat": 20.7249,
            "lng": -103.4372,
            "name": "Libreria Gandhi",
            "phone": "+525526250606",
            "region": "latin-america"
        },
        {
            "address": "Guadalajara Centro, Calle Manuel López Cotilla 1567, Lafayette, 44160 Guadalajara, Jal.",
            "id": "Librerías Gandhi",
            "image": "https://lh5.googleusercontent.com/p/AF1QipOtxGExWJs47AOzD1_NXrUuDyWXFFjNKGKxfDUk=w408-h249-k-no",
            "lat": 20.67,
            "lng": -103.37,
            "name": "Librerías Gandhi",
            "phone": "+525526250606",
            "region": "north-america"
        },
        {
            "address": "Av 8 de Julio 825, Moderna, 44190 Guadalajara, Jal.",
            "id": "Librerías Gonvill",
            "image": "https://lh5.googleusercontent.com/p/AF1QipNHn_NLD9VIQiqLryuyY-6OgDovnXtHwjGUqi2w=w408-h377-k-no",
            "lat": 20.66,
            "lng": -103.353,
            "name": "Librerías Gonvill",
            "phone": "+523338372300",
            "region": "north-america"
        },
        {
            "address": "Av. Chapultepec Sur 150, Col Americana, Lafayette, 44160 Guadalajara, Jal.",
            "id": "Librerías Gonvill",
            "image": "https://lh5.googleusercontent.com/p/AF1QipNHn_NLD9VIQiqLryuyY-6OgDovnXtHwjGUqi2w=w408-h377-k-no",
            "lat": 20.673,
            "lng": -103.369,
            "name": "Librerías Gonvill",
            "phone": "+523338372300",
            "region": "north-america"
        },

        {
            "address": "Av Guadalupe 1294, Fracc, Jardín de San Ignacio, 45040 Zapopan, Jal.",
            "id": "Librería El Sótano Guadalajara",
            "image": "https://lh5.googleusercontent.com/p/AF1QipM_6oQi41hUntA9oBE39ox48as2SQl82r5cYT9_=w426-h240-k-no",
            "lat": 20.666,
            "lng": -103.404,
            "name": "Librería El Sótano Guadalajara",
            "phone": "+528002768266",
            "region": "latin-america"
        },
        {
            "address": "Calle Enrique González Martínez 130, Zona Centro, 44100 Guadalajara, Jal.",
            "id": "Librería Libélula",
            "image": "https://lh5.googleusercontent.com/p/AF1QipNkMIlF1SqGYhELkDxMO1QsOxQdhPXVL3f1RzZZ=w408-h544-k-no",
            "lat": 20.6747,
            "lng": -103.3506,
            "name": "Librería Libélula",
            "phone": "++523336140196",
            "region": "north-america"
        },
        {
            "address": "44160, Calle Pedro Moreno 1530, Lafayette, Guadalajara, Jal.",
            "id": "La Perla Records & Books",
            "image": "https://lh5.googleusercontent.com/p/AF1QipNFVRRepniiQwtacagUu3YNp_8g9M5hsSV6STkE=w408-h886-k-no",
            "lat": 20.6755,
            "lng": -103.3689,
            "name": "La Perla Records & Books",
            "phone": "+523315253015",
            "region": "north-america"
        },
        {
            "address": "Calle Simón Bolívar 49, Col Americana, Americana, 44160 Guadalajara, Jal.",
            "id": "Mar de Tinta",
            "image": "https://lh5.googleusercontent.com/p/AF1QipOEn7GOnw683RlLQe-MsUHcEks6XauWS7Ezno8O=w408-h544-k-no",
            "lat": 20.6754,
            "lng": -103.372,
            "name": "Mar de Tinta",
            "phone": "+523331495689",
            "region": "north-america"
        }
    ]
}